City_ID,City,Country,Date,Lat,Lng,Max Temp,Humidity,Cloudiness,Wind Speed
0,Fairfield,US,2022-12-10 17:45:20,41.2668,-73.3162,39.79,52,0,11.5
1,Oblivskaya,RU,2022-12-10 17:49:39,48.5362,42.5014,34.77,92,100,16.44
2,Albany,US,2022-12-10 17:46:01,42.6001,-73.9662,32.58,63,0,3.56
3,San Cristobal,VE,2022-12-10 17:49:39,7.7669,-72.225,75.38,47,60,2.71
4,Pacific Grove,US,2022-12-10 17:49:40,36.6177,-121.9166,59.11,90,100,28.99
5,Clyde River,CA,2022-12-10 17:49:40,70.4692,-68.5914,-18.17,83,0,5.75
6,Mount Gambier,AU,2022-12-10 17:49:41,-37.8333,140.7667,55.0,78,35,1.92
7,Solnechnyy,RU,2022-12-10 17:49:41,50.7214,136.6319,-1.23,95,79,3.6
8,Port-Gentil,GA,2022-12-10 17:49:41,-0.7193,8.7815,78.76,83,75,5.75
9,East London,ZA,2022-12-10 17:49:42,-33.0153,27.9116,72.54,94,100,6.91
10,Punta Arenas,CL,2022-12-10 17:49:16,-53.15,-70.9167,55.51,44,0,14.97
11,Muisne,EC,2022-12-10 17:49:42,0.6,-80.0333,76.62,75,100,9.51
12,Bundaberg,AU,2022-12-10 17:46:29,-24.85,152.35,69.22,92,48,3.0
13,Port Alfred,ZA,2022-12-10 17:49:43,-33.5906,26.891,72.18,93,100,4.29
14,Wuxi,CN,2022-12-10 17:49:43,31.5689,120.2886,42.98,69,71,13.04
15,Dryden,CA,2022-12-10 17:49:44,49.7833,-92.7503,26.89,93,100,12.66
16,Gat,IL,2022-12-10 17:49:44,31.61,34.7642,63.39,61,0,5.39
17,Ishigaki,JP,2022-12-10 17:49:44,24.3448,124.1572,73.53,83,75,19.57
18,San Carlos De Bariloche,AR,2022-12-10 17:49:45,-41.1456,-71.3082,67.24,31,20,21.85
19,Tsaratanana,MG,2022-12-10 17:49:45,-16.7833,47.65,78.04,65,23,7.16
20,Rikitea,PF,2022-12-10 17:49:45,-23.1203,-134.9692,76.05,75,68,16.49
21,Saint-Philippe,RE,2022-12-10 17:49:46,-21.3585,55.7679,74.79,87,42,11.72
22,Ushuaia,AR,2022-12-10 17:49:46,-54.8,-68.3,51.42,54,69,8.21
23,Asau,RO,2022-12-10 17:49:47,46.4333,26.4,43.72,85,86,1.1
24,Severo-Kurilsk,RU,2022-12-10 17:49:47,50.6789,156.125,23.97,63,85,5.17
25,Taoudenni,ML,2022-12-10 17:49:47,22.6783,-3.9836,81.52,12,0,1.34
26,Porto Novo,BJ,2022-12-10 17:49:48,6.4965,2.6036,84.02,71,15,7.63
27,Sibsagar,IN,2022-12-10 17:49:48,26.9833,94.6333,58.75,79,1,2.42
28,Grindavik,IS,2022-12-10 17:49:48,63.8424,-22.4338,25.27,80,0,9.22
29,Hofn,IS,2022-12-10 17:49:49,64.2539,-15.2082,30.2,56,49,9.08
30,Cape Town,ZA,2022-12-10 17:45:00,-33.9258,18.4232,75.61,74,75,14.0
31,Faya,SA,2022-12-10 17:49:49,18.3851,42.4509,59.11,70,13,1.68
32,Big Bend,SZ,2022-12-10 17:49:50,-26.8167,31.9333,86.97,61,1,8.05
33,Muhos,FI,2022-12-10 17:49:51,64.808,25.9931,26.38,90,95,10.04
34,Kapaa,US,2022-12-10 17:49:52,22.0752,-159.319,75.52,84,40,13.8
35,Mar Del Plata,AR,2022-12-10 17:49:53,-38.0023,-57.5575,87.84,55,0,13.8
36,Bethel,US,2022-12-10 17:49:55,41.3712,-73.414,39.65,52,0,6.91
37,Bambanglipuro,ID,2022-12-10 17:49:56,-7.95,110.2833,77.04,87,99,2.57
38,Marawi,PH,2022-12-10 17:49:56,7.9986,124.2928,67.01,92,92,5.01
39,Naze,JP,2022-12-10 17:49:56,28.3667,129.4833,67.12,74,18,13.31
40,Hermanus,ZA,2022-12-10 17:49:57,-34.4187,19.2345,67.8,83,100,19.64
41,Dharchula,IN,2022-12-10 17:49:57,29.85,80.5333,52.02,20,0,8.57
42,Dingle,PH,2022-12-10 17:49:58,10.9995,122.6711,73.49,92,98,2.95
43,Bluff,NZ,2022-12-10 17:49:58,-46.6,168.3333,52.74,91,99,5.1
44,Castro,BR,2022-12-10 17:49:58,-24.7911,-50.0119,83.12,53,38,7.34
45,Fairbanks,US,2022-12-10 17:45:12,64.8378,-147.7164,6.76,82,100,0.0
46,Mataura,NZ,2022-12-10 17:50:59,-46.1927,168.8643,50.18,99,96,0.98
47,Jamestown,US,2022-12-10 17:50:59,42.097,-79.2353,41.02,31,0,9.22
48,Saint-Joseph,RE,2022-12-10 17:51:00,-21.3667,55.6167,73.78,85,35,11.52
49,Puerto Ayora,EC,2022-12-10 17:51:00,-0.7393,-90.3518,84.16,87,97,5.01
50,Kjollefjord,NO,2022-12-10 17:51:00,70.9457,27.3465,23.05,79,100,11.5
51,Diego De Almagro,CL,2022-12-10 17:51:01,-26.3667,-70.05,82.26,28,82,13.6
52,Siyabuswa,ZA,2022-12-10 17:51:01,-25.1132,29.0445,78.93,50,78,1.68
53,La Ronge,CA,2022-12-10 17:51:01,55.1001,-105.2842,5.25,78,100,1.14
54,Upernavik,GL,2022-12-10 17:51:02,72.7868,-56.1549,26.91,96,100,10.74
55,Moose Factory,CA,2022-12-10 17:51:02,51.2585,-80.6094,3.18,72,0,10.36
56,Nemuro,JP,2022-12-10 17:51:03,43.3236,145.575,33.64,63,6,5.12
57,Chokurdakh,RU,2022-12-10 17:51:03,70.6333,147.9167,-19.37,98,100,11.21
58,Erzurum,TR,2022-12-10 17:51:03,40.0,41.5,29.88,70,11,2.59
59,Mehriz,IR,2022-12-10 17:51:04,31.5917,54.4318,41.5,54,74,4.32
60,Yellowknife,CA,2022-12-10 17:48:50,62.456,-114.3525,-1.68,78,100,5.75
61,Atuona,PF,2022-12-10 17:51:04,-9.8,-139.0333,76.5,78,37,12.97
62,Kirkwall,GB,2022-12-10 17:51:05,58.9848,-2.9587,41.05,70,75,14.97
63,Bredasdorp,ZA,2022-12-10 17:51:05,-34.5322,20.0403,66.78,85,99,17.63
64,Butaritari,KI,2022-12-10 17:51:06,3.0707,172.7902,81.59,75,27,17.34
65,Carnarvon,AU,2022-12-10 17:51:06,-24.8667,113.6333,69.69,69,1,24.02
66,Manaure,CO,2022-12-10 17:51:07,11.7751,-72.4445,81.07,66,44,15.46
67,Dumas,US,2022-12-10 17:51:07,35.8656,-101.9732,47.61,31,0,14.97
68,Waingapu,ID,2022-12-10 17:51:07,-9.6567,120.2641,79.27,79,100,5.12
69,Longyearbyen,SJ,2022-12-10 17:51:08,78.2186,15.6401,21.04,86,75,4.61
70,Sur,OM,2022-12-10 17:51:08,22.5667,59.5289,76.17,66,4,8.88
71,Saint George,US,2022-12-10 17:51:08,37.1041,-113.5841,34.39,75,0,0.0
72,Ballina,AU,2022-12-10 17:51:09,-28.8667,153.5667,64.02,97,93,8.86
73,Ribeira Grande,PT,2022-12-10 17:51:09,38.5167,-28.7,66.78,82,75,28.01
74,Atasu,KZ,2022-12-10 17:51:10,48.6814,71.6433,-11.96,100,42,3.22
75,Talnakh,RU,2022-12-10 17:51:10,69.4865,88.3972,-25.74,93,67,2.44
76,Limerick,IE,2022-12-10 17:51:10,52.6647,-8.6231,35.08,92,27,2.84
77,Vaini,TO,2022-12-10 17:51:11,-21.2,-175.2,73.56,100,75,3.44
78,Ponta Do Sol,PT,2022-12-10 17:51:11,32.6667,-17.1,74.01,92,100,8.23
79,Tottori,JP,2022-12-10 17:50:09,35.5,134.2333,51.31,73,100,5.88
80,Pekan,MY,2022-12-10 17:51:12,3.4836,103.3996,76.96,93,100,5.37
81,Marienburg,PL,2022-12-10 17:51:12,54.0359,19.0266,32.85,83,83,3.69
82,Bathsheba,BB,2022-12-10 17:51:13,13.2167,-59.5167,83.05,70,75,9.22
83,Dudinka,RU,2022-12-10 17:51:13,69.4058,86.1778,-28.75,100,40,3.27
84,Nantucket,US,2022-12-10 17:51:13,41.2835,-70.0995,44.71,86,100,17.27
85,Avarua,CK,2022-12-10 17:51:14,-21.2078,-159.775,75.25,78,75,9.22
86,Alice Springs,AU,2022-12-10 17:47:32,-23.7,133.8833,88.21,40,91,3.0
87,Vzmorye,RU,2022-12-10 17:51:14,54.6961,20.2361,23.09,80,98,3.29
88,Raduzhnyy,RU,2022-12-10 17:51:15,62.0961,77.475,-20.74,100,77,3.91
89,San Patricio,US,2022-12-10 17:51:15,28.017,-97.5169,80.69,63,31,16.26
90,Lebu,CL,2022-12-10 17:52:15,-37.6167,-73.65,64.85,64,0,14.7
91,Lubango,AO,2022-12-10 17:52:16,-14.9172,13.4925,63.73,50,17,6.71
92,Poum,NC,2022-12-10 17:52:16,-20.2333,164.0167,79.99,80,83,9.6
93,Makakilo City,US,2022-12-10 17:52:17,21.3469,-158.0858,73.72,67,0,17.27
94,Pevek,RU,2022-12-10 17:52:17,69.7008,170.3133,-11.36,94,100,13.53
95,Muros,ES,2022-12-10 17:52:17,42.7762,-9.0603,49.08,85,100,3.58
96,Husavik,IS,2022-12-10 17:52:18,66.0449,-17.3389,21.63,85,42,8.55
97,Meulaboh,ID,2022-12-10 17:52:18,4.1363,96.1285,75.74,90,100,9.95
98,Guerrero Negro,MX,2022-12-10 17:49:19,27.9769,-114.0611,65.86,36,0,3.78
99,Bengkulu,ID,2022-12-10 17:52:19,-3.8004,102.2655,74.44,90,100,4.7
100,Yulara,AU,2022-12-10 17:52:19,-25.2406,130.9889,82.51,37,53,3.85
101,Barrow,US,2022-12-10 17:52:19,71.2906,-156.7887,12.22,79,100,11.5
102,Finnsnes,NO,2022-12-10 17:52:20,69.2296,17.9811,5.76,70,51,5.64
103,Baykit,RU,2022-12-10 17:52:20,61.67,96.37,-8.63,98,100,3.56
104,Silifke,TR,2022-12-10 17:52:21,36.3778,33.9344,58.8,75,45,0.65
105,Cherskiy,RU,2022-12-10 17:52:21,68.75,161.3,-26.75,96,100,4.45
106,Qaanaaq,GL,2022-12-10 17:52:21,77.484,-69.3632,2.75,95,100,5.17
107,Derzhavinsk,KZ,2022-12-10 17:52:22,51.1,66.3167,4.28,81,30,9.8
108,Oranjestad,AW,2022-12-10 17:52:22,12.524,-70.027,84.15,54,20,14.97
109,Beringovskiy,RU,2022-12-10 17:52:22,63.05,179.3167,30.06,98,100,13.22
110,Maceio,BR,2022-12-10 17:49:58,-9.6658,-35.7353,87.24,62,20,14.97
111,Soyo,AO,2022-12-10 17:52:23,-6.1349,12.3689,79.18,85,83,8.63
112,Torbay,CA,2022-12-10 17:52:24,47.6666,-52.7314,36.75,96,100,18.01
113,Pauini,BR,2022-12-10 17:52:24,-7.7136,-66.9764,85.6,67,93,3.47
114,Port Hedland,AU,2022-12-10 17:52:24,-20.3167,118.5667,84.25,39,3,11.5
115,Oxford,GB,2022-12-10 17:48:01,51.7522,-1.256,32.38,95,12,1.14
116,Carutapera,BR,2022-12-10 17:52:25,-1.195,-46.02,86.9,56,94,10.67
117,Kodiak,US,2022-12-10 17:52:25,57.79,-152.4072,27.91,64,100,3.44
118,Quelimane,MZ,2022-12-10 17:52:26,-17.8786,36.8883,82.35,83,20,10.36
119,Pucallpa,PE,2022-12-10 17:52:26,-8.3791,-74.5539,87.84,66,75,5.75
120,Luanda,AO,2022-12-10 17:52:26,-8.8368,13.2343,82.4,78,75,9.22
121,Troyes,FR,2022-12-10 17:52:27,48.3333,4.0833,29.17,93,100,0.0
122,Samarai,PG,2022-12-10 17:52:27,-10.6167,150.6667,82.04,77,87,2.59
123,Tabou,CI,2022-12-10 17:52:27,4.423,-7.3528,81.14,74,29,7.58
124,Lagoa,PT,2022-12-10 17:52:28,39.05,-27.9833,63.99,74,0,28.19
125,Dakar,SN,2022-12-10 17:50:38,14.6937,-17.4441,88.68,74,0,11.5
126,Qaqortoq,GL,2022-12-10 17:52:28,60.7167,-46.0333,14.27,67,0,7.78
127,Victoria,HK,2022-12-10 17:51:03,22.2855,114.1577,63.25,68,1,13.0
128,Hithadhoo,MV,2022-12-10 17:52:29,-0.6,73.0833,81.57,77,95,13.06
129,Kingaroy,AU,2022-12-10 17:52:29,-26.5333,151.8333,57.67,98,19,3.27
130,Hasaki,JP,2022-12-10 17:52:29,35.7333,140.8333,45.21,73,26,7.7
131,Busselton,AU,2022-12-10 17:52:30,-33.65,115.3333,51.57,84,0,11.16
132,The Valley,AI,2022-12-10 17:50:13,18.217,-63.0578,83.1,69,1,8.46
133,Krasnoselkup,RU,2022-12-10 17:52:30,65.7,82.4667,-31.45,99,23,4.23
134,Cidreira,BR,2022-12-10 17:52:31,-30.1811,-50.2056,77.83,79,92,9.28
135,Carquefou,FR,2022-12-10 17:52:31,47.2982,-1.4902,38.98,78,0,4.61
136,Sanchursk,RU,2022-12-10 17:52:31,56.9413,47.2499,25.36,97,100,8.88
137,Yerbogachen,RU,2022-12-10 17:52:32,61.2767,108.0108,-8.77,100,100,2.46
138,Willmar,US,2022-12-10 17:48:39,45.1219,-95.0433,33.75,93,75,3.44
139,Padang,ID,2022-12-10 17:53:32,-0.9492,100.3543,75.52,96,100,5.93
140,Banjar,ID,2022-12-10 17:53:33,-8.19,114.9675,77.25,90,87,4.81
141,Nanchong,CN,2022-12-10 17:53:33,30.7951,106.0847,49.42,74,12,1.5
142,Rindal,NO,2022-12-10 17:53:34,63.0565,9.2124,5.92,90,19,5.23
143,Faanui,PF,2022-12-10 17:53:34,-16.4833,-151.75,78.3,74,98,4.79
144,Maragogi,BR,2022-12-10 17:53:34,-9.0122,-35.2225,83.68,65,54,11.45
145,Hobart,AU,2022-12-10 17:53:35,-42.8794,147.3294,53.46,88,40,5.75
146,Ebebiyin,GQ,2022-12-10 17:53:35,2.1511,11.3353,75.76,74,92,2.8
147,Moyobamba,PE,2022-12-10 17:53:36,-6.05,-76.9667,76.05,77,100,2.13
148,Port Macquarie,AU,2022-12-10 17:53:36,-31.4333,152.9167,60.89,85,96,7.45
149,Katsuura,JP,2022-12-10 17:53:37,35.1333,140.3,54.9,73,4,9.13
150,Xiongzhou,CN,2022-12-10 17:53:37,25.1167,114.3,49.37,82,12,3.78
151,Puerto Gaitan,CO,2022-12-10 17:53:37,4.3133,-72.0816,89.69,46,84,9.84
152,New Norfolk,AU,2022-12-10 17:53:38,-42.7826,147.0587,53.1,82,66,2.51
153,Henties Bay,NA,2022-12-10 17:53:38,-22.116,14.2845,61.57,89,5,8.41
154,Kristiinankaupunki,FI,2022-12-10 17:53:39,62.2743,21.376,21.54,94,100,7.94
155,Salamiyah,SY,2022-12-10 17:53:39,35.0113,37.0532,54.77,69,9,5.39
156,College,US,2022-12-10 17:53:39,64.8569,-147.8028,5.32,92,100,0.0
157,Hailey,US,2022-12-10 17:50:23,43.5196,-114.3153,30.88,80,100,8.01
158,Mahebourg,MU,2022-12-10 17:53:40,-20.4081,57.7,77.25,88,75,10.36
159,Nanortalik,GL,2022-12-10 17:53:40,60.1432,-45.2371,22.62,79,4,8.7
160,Saskylakh,RU,2022-12-10 17:53:41,71.9167,114.0833,-14.04,99,100,4.45
161,Atar,MR,2022-12-10 17:53:41,20.5169,-13.0499,88.39,13,28,6.91
162,Mitsamiouli,KM,2022-12-10 17:53:41,-11.3847,43.2844,81.14,75,42,4.07
163,Dauphin,CA,2022-12-10 17:53:42,51.1494,-100.0502,17.74,86,100,5.75
164,Clifton,US,2022-12-10 17:51:08,40.8584,-74.1638,41.72,57,0,10.36
165,San Luis,AR,2022-12-10 17:53:42,-33.295,-66.3356,89.56,37,36,5.37
166,Emba,KZ,2022-12-10 17:53:43,48.8264,58.1442,4.1,84,7,3.8
167,Dikson,RU,2022-12-10 17:53:43,73.5069,80.5464,-4.45,100,100,3.51
168,Aguimes,ES,2022-12-10 17:53:43,27.9054,-15.4461,68.63,88,75,9.22
169,Kavaratti,IN,2022-12-10 17:53:44,10.5669,72.642,81.39,70,47,13.69
170,Kaeo,NZ,2022-12-10 17:53:44,-35.1,173.7833,67.32,96,100,5.55
171,Greenville,US,2022-12-10 17:49:21,35.6127,-77.3663,53.13,65,100,3.44
172,Farmington,US,2022-12-10 17:49:11,36.7281,-108.2187,48.2,55,0,10.36
173,Eureka,US,2022-12-10 17:50:57,40.8021,-124.1637,51.93,94,97,7.0
174,Aksarka,RU,2022-12-10 17:53:45,66.5606,67.7975,-13.81,100,83,2.66
175,Honiara,SB,2022-12-10 17:52:39,-9.4333,159.95,77.54,86,100,2.33
176,Chicama,PE,2022-12-10 17:53:46,-7.8447,-79.1469,68.54,60,91,10.83
177,Srednekolymsk,RU,2022-12-10 17:53:46,67.45,153.6833,-40.14,97,98,8.79
178,Port Hawkesbury,CA,2022-12-10 17:53:46,45.6169,-61.3485,36.99,84,100,18.99
179,Khatanga,RU,2022-12-10 17:53:47,71.9667,102.5,-7.62,98,100,10.47
180,Saint-Augustin,CA,2022-12-10 17:53:47,51.226,-58.6502,14.58,66,55,17.52
181,Oussouye,SN,2022-12-10 17:53:47,12.485,-16.5469,93.38,59,0,10.8
182,Alta Floresta,BR,2022-12-10 17:54:48,-9.8756,-56.0861,75.87,83,100,1.32
183,Nyuzen,JP,2022-12-10 17:54:48,36.9333,137.5,50.47,70,100,10.89
184,Kaitangata,NZ,2022-12-10 17:54:49,-46.2817,169.8464,50.92,97,99,1.66
185,Lantana,US,2022-12-10 17:53:22,26.5867,-80.052,83.05,59,0,6.91
186,Christchurch,NZ,2022-12-10 17:54:49,-43.5333,172.6333,57.9,83,74,4.0
187,Redlands,US,2022-12-10 17:54:34,34.0556,-117.1825,65.19,56,46,3.65
188,Moerai,PF,2022-12-10 17:54:50,-22.4333,-151.3333,73.4,83,100,23.04
189,Ambulu,ID,2022-12-10 17:54:50,-8.345,113.6058,75.27,91,99,2.93
190,Thinadhoo,MV,2022-12-10 17:54:50,0.5333,72.9333,80.89,79,100,14.29
191,Nyurba,RU,2022-12-10 17:54:51,63.2842,118.3319,-30.69,100,99,3.15
192,Kota Bahru,MY,2022-12-10 17:54:51,6.1333,102.2386,76.98,94,40,5.01
193,Assiniboia,CA,2022-12-10 17:54:52,49.6334,-105.9845,13.82,62,55,1.14
194,Bambous Virieux,MU,2022-12-10 17:54:52,-20.3428,57.7575,77.22,88,75,10.36
195,Natal,BR,2022-12-10 17:54:52,-5.795,-35.2094,86.65,58,75,14.97
196,Xuddur,SO,2022-12-10 17:54:53,4.1213,43.8894,80.98,37,27,10.25
197,Georgetown,MY,2022-12-10 17:54:53,5.4112,100.3354,78.89,91,40,7.0
198,Khash,IR,2022-12-10 17:54:53,28.2211,61.2158,44.02,51,57,7.85
199,Thompson,CA,2022-12-10 17:54:54,55.7435,-97.8558,21.36,86,100,4.61
200,Constitucion,CL,2022-12-10 17:54:54,-35.3333,-72.4167,72.23,50,2,20.74
201,Provideniya,RU,2022-12-10 17:54:55,64.3833,-173.3,29.71,97,100,32.48
202,Barra Do Garcas,BR,2022-12-10 17:54:55,-15.89,-52.2567,88.38,55,40,5.75
203,Kathu,TH,2022-12-10 17:54:55,7.9178,98.3332,83.7,99,100,6.93
204,Hualmay,PE,2022-12-10 17:54:56,-11.0964,-77.6139,69.78,78,100,8.14
205,Bilma,NE,2022-12-10 17:54:56,18.6853,12.9164,72.93,13,0,8.59
206,Quatre Cocos,MU,2022-12-10 17:54:57,-20.2078,57.7625,77.09,79,44,12.73
207,Shenkursk,RU,2022-12-10 17:54:57,62.1091,42.896,10.47,96,98,5.97
208,Alyangula,AU,2022-12-10 17:54:57,-13.8483,136.4192,83.32,72,64,11.23
209,Umm Lajj,SA,2022-12-10 17:54:58,25.0213,37.2685,78.48,41,0,14.41
210,Zavodoukovsk,RU,2022-12-10 17:54:58,56.5042,66.5515,15.53,91,100,8.34
211,Tocopilla,CL,2022-12-10 17:54:58,-22.092,-70.1979,72.34,65,72,4.07
212,Tuktoyaktuk,CA,2022-12-10 17:54:59,69.4541,-133.0374,-4.0,84,75,8.05
213,Isangel,VU,2022-12-10 17:54:59,-19.55,169.2667,79.03,83,100,6.33
214,Souillac,MU,2022-12-10 17:55:00,-20.5167,57.5167,75.58,88,75,10.36
215,Vila Velha,BR,2022-12-10 17:55:00,-20.3297,-40.2925,91.35,62,20,16.11
216,Camacha,PT,2022-12-10 17:55:00,33.0833,-16.3333,69.22,83,20,24.16
217,Conde,BR,2022-12-10 17:55:01,-7.2597,-34.9075,85.46,66,75,11.5
218,Hilo,US,2022-12-10 17:53:12,19.7297,-155.09,71.62,95,96,4.0
219,Volchikha,RU,2022-12-10 17:55:01,52.0333,80.3833,7.0,94,100,12.46
220,Ust-Nera,RU,2022-12-10 17:55:02,64.5667,143.2,-37.57,98,100,4.68
221,Nikolskoye,RU,2022-12-10 17:55:02,59.7035,30.7861,22.89,100,93,3.4
222,Riwaka,NZ,2022-12-10 17:55:03,-41.0833,173.0,56.01,72,4,2.51
223,Kamenka,RU,2022-12-10 17:55:03,51.3223,42.7678,30.67,85,100,19.64
224,Esperance,AU,2022-12-10 17:55:03,-33.8667,121.9,57.97,69,93,12.66
225,Sile,TR,2022-12-10 17:55:04,41.1754,29.6133,63.27,64,100,7.7
226,Waipawa,NZ,2022-12-10 17:55:04,-41.4122,175.5153,56.19,79,100,7.92
227,Manzhouli,CN,2022-12-10 17:55:05,49.6,117.4333,0.91,81,5,7.56
228,Sitio Novo Do Tocantins,BR,2022-12-10 17:55:05,-5.5183,-47.4611,89.53,62,40,4.61
229,Portoferraio,IT,2022-12-10 17:56:05,42.8115,10.3146,61.09,79,99,14.38
230,Yongan,CN,2022-12-10 17:56:06,39.6957,113.6871,13.77,45,0,1.19
231,Tenri,JP,2022-12-10 17:56:06,34.5833,135.8333,46.0,70,82,2.39
232,Cabo San Lucas,MX,2022-12-10 17:53:20,22.8909,-109.9124,79.52,63,3,1.99
233,Nosy Varika,MG,2022-12-10 17:56:07,-20.5833,48.5333,75.04,78,0,0.76
234,Oriximina,BR,2022-12-10 17:56:07,-1.7656,-55.8661,95.36,36,71,6.85
235,Khandyga,RU,2022-12-10 17:56:08,62.6667,135.6,-25.55,97,100,3.13
236,Jevargi,IN,2022-12-10 17:56:08,17.0167,76.7667,71.15,56,100,7.02
237,Vao,NC,2022-12-10 17:56:09,-22.6667,167.4833,78.24,79,100,11.65
238,Newport,GB,2022-12-10 17:56:09,51.5877,-2.9984,38.61,66,16,1.77
239,Am Timan,TD,2022-12-10 17:56:10,11.0297,20.2827,80.33,18,39,4.63
240,Cayenne,GF,2022-12-10 17:56:10,4.9333,-52.3333,86.04,66,100,11.5
241,Taligaman,PH,2022-12-10 17:56:10,8.9044,125.6558,72.73,97,100,2.06
242,Namibe,AO,2022-12-10 17:56:11,-15.1961,12.1522,72.34,75,3,5.7
243,Roma,US,2022-12-10 17:56:11,43.2128,-75.4557,38.73,54,2,5.99
244,Narsaq,GL,2022-12-10 17:56:11,60.9167,-46.05,11.66,65,0,8.1
245,Fort Morgan,US,2022-12-10 17:56:12,40.2503,-103.8,36.25,44,0,6.91
246,Sao Filipe,CV,2022-12-10 17:56:12,14.8961,-24.4956,78.91,68,66,3.2
247,Tautira,PF,2022-12-10 17:56:13,-17.7333,-149.15,78.21,76,65,7.74
248,Ancud,CL,2022-12-10 17:56:13,-41.8697,-73.8203,60.91,71,7,10.98
249,Zhigansk,RU,2022-12-10 17:56:13,66.7697,123.3711,-42.12,97,60,8.84
250,Podyuga,RU,2022-12-10 17:56:14,61.095,40.8647,14.22,95,100,5.73
251,Ewa Beach,US,2022-12-10 17:56:14,21.3156,-158.0072,75.09,75,52,24.96
252,Inongo,CD,2022-12-10 17:56:14,-1.95,18.2667,77.34,72,27,0.31
253,Vanavara,RU,2022-12-10 17:56:15,60.34,102.2797,-0.13,98,100,4.43
254,Nanlong,CN,2022-12-10 17:56:15,31.3533,106.0631,50.67,72,74,1.77
255,Key West,US,2022-12-10 17:56:15,24.5557,-81.7826,79.0,73,9,11.1
256,Tasiilaq,GL,2022-12-10 17:56:16,65.6145,-37.6368,14.2,58,87,4.59
257,Nizhniy Kuranakh,RU,2022-12-10 17:56:16,58.8353,125.4869,0.3,94,100,8.46
258,Gold Coast,AU,2022-12-10 17:52:12,-28.0,153.4333,72.18,86,100,10.36
259,Iqaluit,CA,2022-12-10 17:56:17,63.7506,-68.5145,-9.67,77,20,18.41
260,Kutum,SD,2022-12-10 17:56:17,14.2,24.6667,64.13,16,2,10.0
261,Saraipali,IN,2022-12-10 17:56:18,21.3333,83.0,66.47,39,71,2.93
262,Wuan,CN,2022-12-10 17:56:18,31.6836,112.0044,39.04,36,11,8.16
263,Acapulco,MX,2022-12-10 17:53:41,16.8634,-99.8901,82.9,62,3,3.74
264,Sydney Mines,CA,2022-12-10 17:56:19,46.2367,-60.2177,35.15,89,100,25.99
265,Oranjemund,NA,2022-12-10 17:56:19,-28.55,16.4333,66.33,88,4,7.9
266,Kununurra,AU,2022-12-10 17:56:19,-15.7667,128.7333,80.58,74,99,5.75
267,Mandalgovi,MN,2022-12-10 17:56:20,45.7625,106.2708,7.81,46,79,10.74
268,Sfantu Gheorghe,RO,2022-12-10 17:56:20,45.8667,25.7833,52.27,87,73,4.09
269,Calabozo,VE,2022-12-10 17:56:21,8.9242,-67.4293,90.86,39,26,5.53
270,Rio Grande,BR,2022-12-10 17:56:21,-32.035,-52.0986,91.51,70,93,12.21
271,Bukama,CD,2022-12-10 17:56:21,-9.2,25.85,73.17,79,73,2.3
272,Teknaf,BD,2022-12-10 17:56:22,20.8624,92.3058,71.28,68,7,7.96
273,Egvekinot,RU,2022-12-10 17:56:22,66.3167,-179.1667,6.58,92,100,18.75
274,Vila Franca Do Campo,PT,2022-12-10 17:57:23,37.7167,-25.4333,68.2,85,32,22.48
275,Kokopo,PG,2022-12-10 17:57:23,-4.352,152.2633,77.56,83,100,0.81
276,Chapais,CA,2022-12-10 17:57:23,49.7834,-74.8492,2.98,75,75,8.79
277,Port Elizabeth,ZA,2022-12-10 17:54:11,-33.918,25.5701,73.31,95,75,6.91
278,Mayo,US,2022-12-10 17:57:24,38.8876,-76.5119,46.11,64,0,3.44
279,Hambantota,LK,2022-12-10 17:57:24,6.1241,81.1185,77.11,86,95,11.61
280,Lata,PT,2022-12-10 17:57:25,40.1629,-8.3327,52.07,80,81,2.24
281,Mazamari,PE,2022-12-10 17:57:25,-11.3258,-74.5308,93.15,42,96,2.37
282,Majalengka,ID,2022-12-10 17:57:25,-6.8361,108.2278,74.37,89,100,4.38
283,Excelsior Springs,US,2022-12-10 17:54:07,39.3392,-94.2261,43.74,84,100,5.75
284,Luderitz,NA,2022-12-10 17:57:26,-26.6481,15.1594,64.94,87,0,12.33
285,Illela,NG,2022-12-10 17:57:27,13.7292,5.2975,77.86,12,0,9.44
286,Mayya,RU,2022-12-10 17:57:27,61.7333,130.2811,-25.06,99,100,1.61
287,Lompoc,US,2022-12-10 17:57:27,34.6391,-120.4579,57.78,95,100,10.36
288,Roald,NO,2022-12-10 17:57:28,62.5833,6.1333,26.74,68,0,16.11
289,Chernyshevskiy,RU,2022-12-10 17:57:28,63.0128,112.4714,-23.28,98,96,2.86
290,Mwense,ZM,2022-12-10 17:57:29,-10.3845,28.698,68.54,88,84,2.64
291,Arraial Do Cabo,BR,2022-12-10 17:57:30,-22.9661,-42.0278,85.96,78,40,16.11
292,San Vicente,AR,2022-12-10 17:57:31,-26.6167,-54.1333,92.39,38,96,2.53
293,Ongandjera,NA,2022-12-10 17:57:31,-17.8833,15.0667,86.59,20,55,4.61
294,Calamar,CO,2022-12-10 17:57:31,10.2511,-74.9146,85.64,60,16,3.42
295,Svetlyy,RU,2022-12-10 17:57:32,54.675,20.1347,23.05,79,87,3.71
296,Khambhaliya,IN,2022-12-10 17:57:32,22.2072,69.6683,71.33,49,0,9.57
297,Tiksi,RU,2022-12-10 17:57:33,71.6872,128.8694,-17.43,96,100,10.47
298,Kloulklubed,PW,2022-12-10 17:57:33,7.0419,134.2556,82.44,73,98,3.24
299,Matara,LK,2022-12-10 17:57:33,5.9485,80.5353,75.63,91,100,9.75
300,Broome,US,2022-12-10 17:57:34,42.2506,-75.833,41.2,61,2,1.99
301,Kendari,ID,2022-12-10 17:57:34,-3.945,122.4989,75.13,91,78,3.83
302,Raudeberg,NO,2022-12-10 17:57:35,61.9875,5.1352,28.87,66,2,14.47
303,Visnes,NO,2022-12-10 17:57:35,59.3556,5.2242,32.05,69,40,11.5
304,Bara,NG,2022-12-10 17:57:35,10.3744,10.7288,77.54,17,0,7.99
305,Le Port,RE,2022-12-10 17:57:36,-20.9373,55.2919,77.25,73,32,3.38
306,Alofi,NU,2022-12-10 17:57:36,-19.0595,-169.9187,75.09,94,99,4.61
307,Iquitos,PE,2022-12-10 17:54:14,-3.7481,-73.2472,89.64,74,75,4.61
308,Ilula,TZ,2022-12-10 17:57:37,-7.6766,36.0366,66.69,79,96,4.83
309,Aswan,EG,2022-12-10 17:57:37,24.0934,32.907,74.5,18,0,9.22
310,Lasa,IT,2022-12-10 17:57:37,46.6166,10.7002,34.02,93,100,7.94
311,Teya,RU,2022-12-10 17:57:38,60.3778,92.6267,-19.48,98,100,3.47
312,Kidal,ML,2022-12-10 17:57:38,18.4411,1.4078,76.96,10,0,7.9
313,Manokwari,ID,2022-12-10 17:55:51,-0.8667,134.0833,78.1,82,100,3.04
314,Airai,TL,2022-12-10 17:57:39,-8.9266,125.4092,59.9,70,76,1.83
315,Zeya,RU,2022-12-10 17:57:39,53.75,127.2667,-17.1,97,44,2.3
316,Bhor,IN,2022-12-10 17:53:11,18.1667,73.85,67.3,46,100,4.76
317,Bedele,ET,2022-12-10 17:57:40,8.456,36.353,58.26,75,38,3.78
318,Fort Nelson,CA,2022-12-10 17:57:40,58.8053,-122.7002,-2.06,82,75,4.0
319,Ferme-Neuve,CA,2022-12-10 17:57:40,46.7001,-75.4493,23.77,39,6,6.24
320,Visby,SE,2022-12-10 17:57:41,57.6409,18.296,30.42,80,100,6.91
321,Geraldton,AU,2022-12-10 17:55:15,-28.7667,114.6,61.21,67,0,14.97
322,Moron,AR,2022-12-10 17:58:41,-34.6534,-58.6198,88.81,52,98,12.24
323,Klaksvik,FO,2022-12-10 17:58:42,62.2266,-6.589,36.52,71,90,28.57
324,Greeley,US,2022-12-10 17:58:42,40.4233,-104.7091,45.46,45,1,2.8
325,Pandharpur,IN,2022-12-10 17:58:42,17.6667,75.3333,73.6,48,99,6.24
326,Merritt,CA,2022-12-10 17:58:43,50.1123,-120.7942,26.76,91,97,2.75
327,Rio Gallegos,AR,2022-12-10 17:58:43,-51.6226,-69.2181,64.45,24,40,21.85
328,Wladyslawowo,PL,2022-12-10 17:58:16,54.7909,18.4009,33.55,69,100,3.2
329,Khani,GE,2022-12-10 17:58:43,41.9563,42.9566,40.57,65,4,5.66
330,Sioux Lookout,CA,2022-12-10 17:58:44,50.1001,-91.917,28.47,80,100,8.05
331,Salair,RU,2022-12-10 17:58:44,54.2312,85.7972,3.61,92,100,14.16
332,Bubaque,GW,2022-12-10 17:58:45,11.2833,-15.8333,81.37,75,6,15.05
333,Akyab,MM,2022-12-10 17:58:45,20.15,92.9,75.6,76,1,8.88
334,Paramonga,PE,2022-12-10 17:58:45,-10.6667,-77.8333,70.12,78,100,7.49
335,Kruisfontein,ZA,2022-12-10 17:58:46,-34.0033,24.7314,70.88,96,88,4.63
336,Bay Roberts,CA,2022-12-10 17:58:46,47.5999,-53.2648,37.51,88,88,8.01
337,Lake Charles,US,2022-12-10 17:58:28,30.2131,-93.2044,73.38,94,100,6.91
338,Horasan,TR,2022-12-10 17:58:47,40.0458,42.1728,30.16,75,1,1.48
339,Brae,GB,2022-12-10 17:58:47,60.3964,-1.353,39.97,61,100,17.38
340,Wajir,KE,2022-12-10 17:58:48,1.7471,40.0573,84.11,51,42,6.08
341,Ceres,US,2022-12-10 17:58:48,37.5949,-120.9577,54.05,84,100,24.58
342,Nikki,BJ,2022-12-10 17:58:48,9.9401,3.2108,80.82,16,1,4.54
343,Manzil Salim,TN,2022-12-10 17:58:49,35.8567,8.4765,57.97,59,76,18.25
344,At-Bashi,KG,2022-12-10 17:58:49,41.1702,75.8106,3.78,68,67,1.61
345,Macusani,PE,2022-12-10 17:58:49,-14.0833,-70.4333,53.51,43,57,13.89
346,Xunchang,CN,2022-12-10 17:58:50,28.4543,104.715,50.85,73,100,0.49
347,Santa Ana,US,2022-12-10 17:55:06,33.7456,-117.8678,61.41,74,55,1.99
348,Chuy,UY,2022-12-10 17:58:50,-33.6971,-53.4616,77.02,61,90,14.12
349,Abony,HU,2022-12-10 17:58:51,47.1899,20.0048,43.12,97,100,13.8
350,Uige,AO,2022-12-10 17:58:51,-7.6087,15.0613,67.91,96,43,0.92
351,Cockburn Town,TC,2022-12-10 17:58:51,21.4612,-71.1419,80.56,57,40,5.75
352,Aklavik,CA,2022-12-10 17:58:52,68.2191,-135.0107,-7.6,77,75,8.05
353,Chambishi,ZM,2022-12-10 17:58:52,-12.6325,28.0537,65.93,83,52,2.95
354,Vagur,FO,2022-12-10 17:58:52,61.4732,-6.8119,42.66,58,92,27.63
355,Mmathubudukwane,BW,2022-12-10 17:58:53,-24.6,26.4333,76.84,48,59,5.84
356,Margate,GB,2022-12-10 17:58:53,51.3813,1.3862,31.1,74,39,6.51
357,Olinda,BR,2022-12-10 17:58:53,-8.0089,-34.8553,83.93,70,40,9.22
358,Kambove,CD,2022-12-10 17:58:54,-10.8764,26.5969,63.41,91,55,2.51
359,Northam,GB,2022-12-10 17:58:54,51.0333,-4.2167,33.26,75,74,1.39
360,Nabire,ID,2022-12-10 17:58:55,-3.3667,135.4833,75.58,88,100,1.81
361,Odweyne,SO,2022-12-10 17:58:55,9.4092,45.064,67.12,52,9,9.24
362,Bima,ID,2022-12-10 17:58:55,-8.4667,118.7167,77.0,90,99,2.93
363,Erenhot,CN,2022-12-10 17:58:56,43.6475,111.9767,7.47,73,0,7.49
364,Taltal,CL,2022-12-10 17:58:56,-25.4,-70.4833,68.14,71,100,4.74
365,Tonantins,BR,2022-12-10 17:58:56,-2.8731,-67.8022,84.65,74,95,2.26
366,Pemba,MZ,2022-12-10 17:58:57,-12.974,40.5178,81.3,83,75,9.22
367,Segou,ML,2022-12-10 17:58:57,13.4317,-6.2157,84.67,12,0,7.14
368,Kibre Mengist,ET,2022-12-10 17:58:58,5.8833,38.9833,63.77,53,28,1.43
369,Nouadhibou,MR,2022-12-10 17:58:58,20.931,-17.0347,76.98,65,5,12.66
370,Mumbwa,ZM,2022-12-10 17:59:58,-14.9783,27.0619,67.6,86,99,4.03
371,Goderich,CA,2022-12-10 17:59:59,43.7501,-81.7165,36.91,69,52,14.97
372,Rantauprapat,ID,2022-12-10 17:59:59,2.1,99.8333,72.09,100,100,0.22
373,Douglas,US,2022-12-10 17:56:43,41.3,-96.167,37.85,81,100,9.22
374,Awjilah,LY,2022-12-10 17:55:38,29.1081,21.2869,71.33,23,5,4.94
375,Komsomolskiy,UZ,2022-12-10 18:00:00,40.4272,71.7189,27.32,93,75,2.3
376,Las Vegas,US,2022-12-10 17:56:45,36.175,-115.1372,52.61,46,100,4.0
377,Basco,PH,2022-12-10 18:00:01,20.4487,121.9702,78.08,76,90,20.98
378,Yei,SS,2022-12-10 18:00:01,4.095,30.6779,76.32,56,70,1.12
379,Rzhyshchiv,UA,2022-12-10 18:00:02,49.9689,31.0463,41.14,99,100,6.42
380,Pirapo,PY,2022-12-10 18:00:03,-26.85,-55.5333,97.12,39,89,2.08
381,Kavieng,PG,2022-12-10 18:00:04,-2.5744,150.7967,81.32,78,100,7.14
382,Anloga,GH,2022-12-10 18:00:04,5.7947,0.8973,82.99,74,2,11.21
383,Tiznit,MA,2022-12-10 18:00:05,29.5833,-9.5,62.71,66,100,7.2
384,Tavda,RU,2022-12-10 18:00:06,58.0425,65.2726,14.36,95,100,4.52
385,Gariaband,IN,2022-12-10 18:00:07,20.635,82.0614,65.01,59,77,3.31
386,Praia Da Vitoria,PT,2022-12-10 18:00:08,38.7333,-27.0667,66.76,88,10,31.99
387,Salinas,US,2022-12-10 18:00:08,36.6777,-121.6555,59.83,79,100,12.26
388,Noumea,NC,2022-12-10 18:00:10,-22.2763,166.4572,81.0,99,100,3.91
389,Flin Flon,CA,2022-12-10 18:00:10,54.7682,-101.865,19.15,89,90,1.28
390,San Felipe,VE,2022-12-10 17:58:30,10.3399,-68.7425,78.91,76,71,6.58
391,El Alto,PE,2022-12-10 18:00:11,-4.2714,-81.2147,71.13,70,36,10.27
392,Zaraza,VE,2022-12-10 18:00:12,9.3503,-65.3245,84.36,54,77,6.49
393,Quang Ngai,VN,2022-12-10 17:56:02,15.1167,108.8,70.65,90,100,3.11
394,Aksha,RU,2022-12-10 18:00:12,50.2814,113.2867,3.06,82,6,5.23
395,Sao Borja,BR,2022-12-10 17:56:35,-28.6606,-56.0044,97.09,33,100,9.33
396,Alberton,CA,2022-12-10 18:00:13,46.8168,-64.0654,25.54,63,91,25.43
397,Yakeshi,CN,2022-12-10 18:00:14,49.2833,120.7333,-12.24,100,91,4.25
398,Seddon,AU,2022-12-10 18:00:14,-37.8068,144.8916,62.98,66,0,11.5
399,Saint-Francois,FR,2022-12-10 17:57:57,46.4154,3.9054,27.84,86,0,5.75
400,Banda Aceh,ID,2022-12-10 18:00:15,5.5577,95.3222,75.18,90,100,10.02
401,Markala,ML,2022-12-10 18:00:15,13.7021,-6.0659,84.99,11,0,8.23
402,Salalah,OM,2022-12-10 18:00:16,17.0151,54.0924,75.2,58,21,3.02
403,Korem,ET,2022-12-10 18:00:16,12.5058,39.5228,52.66,64,7,3.69
404,Jibuti,DJ,2022-12-10 18:00:16,11.5,42.5,72.03,66,0,13.85
405,Fortuna,US,2022-12-10 18:02:27,40.5982,-124.1573,52.14,94,40,10.36
406,Coquimbo,CL,2022-12-10 18:02:27,-29.9533,-71.3436,68.11,74,5,9.26
407,Burlatskoye,RU,2022-12-10 18:02:28,45.0564,43.635,41.58,81,64,13.15
408,Teguldet,RU,2022-12-10 18:02:28,57.3064,88.1667,-6.83,88,100,7.25
409,Dewas,IN,2022-12-10 18:02:29,22.9667,76.0667,59.18,42,18,8.01
410,Cocachacra,PE,2022-12-10 18:02:29,-17.0883,-71.7575,73.67,68,82,8.05
411,Tromso,NO,2022-12-10 17:58:11,69.6496,18.957,17.38,79,0,4.61
412,Maniitsoq,GL,2022-12-10 18:02:29,65.4167,-52.9,29.12,71,13,7.31
413,Lowestoft,GB,2022-12-10 18:02:30,52.4752,1.7516,31.01,96,48,5.68
414,Adrar,MR,2022-12-10 18:02:30,20.5022,-10.0711,81.18,12,51,3.0
415,Pangnirtung,CA,2022-12-10 18:02:31,66.1451,-65.7125,6.8,92,75,2.3
416,Kuytun,RU,2022-12-10 18:03:31,54.3419,101.5036,1.26,91,98,2.89
417,Nouakchott,MR,2022-12-10 18:01:50,18.0858,-15.9785,84.13,58,0,13.89
418,Brandon,US,2022-12-10 18:02:26,27.9378,-82.2859,79.11,80,75,5.01
419,Bridlington,GB,2022-12-10 18:03:32,54.0831,-0.1919,35.89,93,98,1.01
420,Ipu,BR,2022-12-10 18:03:32,-4.3222,-40.7108,96.31,25,65,9.28
421,Kearney,US,2022-12-10 18:02:30,40.6995,-99.0815,41.56,53,0,8.01
422,Changping,CN,2022-12-10 18:03:33,40.2186,116.2197,20.84,29,0,6.49
423,Santa Vitoria Do Palmar,BR,2022-12-10 18:03:33,-33.5189,-53.3681,77.83,65,97,13.96
424,Eruwa,NG,2022-12-10 18:03:34,7.5333,3.4167,86.25,19,5,2.51
425,Cabinda,AO,2022-12-10 18:03:34,-5.55,12.2,78.53,89,71,8.7
426,Zharkovskiy,RU,2022-12-10 18:03:35,55.849,32.2697,26.46,95,100,8.7
427,Kahului,US,2022-12-10 18:03:35,20.8947,-156.47,74.84,87,100,10.0
428,Vanimo,PG,2022-12-10 18:03:35,-2.6741,141.3028,77.36,88,100,1.83
429,Puro,PH,2022-12-10 18:03:36,12.4841,123.3827,76.87,91,100,5.7
430,Stepnogorsk,KZ,2022-12-10 18:03:37,52.3544,71.8869,5.92,79,93,12.44
431,Nedjo,ET,2022-12-10 18:03:37,9.5046,35.5019,61.66,61,49,3.02
432,Altus,US,2022-12-10 18:03:37,34.6381,-99.334,51.87,79,100,18.41
433,Kriva Palanka,MK,2022-12-10 18:01:32,42.2019,22.3319,51.84,93,100,7.11
434,Polunochnoye,RU,2022-12-10 18:03:38,60.8697,60.4153,4.55,96,100,2.8
435,Narasannapeta,IN,2022-12-10 18:03:38,18.4167,84.05,75.33,85,94,12.93
436,Altay,CN,2022-12-10 18:03:39,47.8667,88.1167,-6.11,90,98,6.2
437,Codrington,AU,2022-12-10 18:03:39,-38.2667,141.9667,61.81,64,68,4.88
438,Troitskoye,RU,2022-12-10 18:03:39,52.9821,84.6757,8.53,93,100,18.37
439,Florencia,IT,2022-12-10 17:58:50,43.7667,11.25,55.29,95,40,2.3
440,Markova,UA,2022-12-10 18:03:40,48.6758,24.4138,36.09,96,100,2.53
441,Olonets,RU,2022-12-10 18:03:40,60.9847,32.9698,12.54,99,99,4.32
442,Kysyl-Syr,RU,2022-12-10 18:03:41,63.8986,122.7617,-25.31,98,100,4.29
443,Pozo Colorado,PY,2022-12-10 18:03:41,-23.4923,-58.7972,107.46,24,100,8.16
444,Cerritos,US,2022-12-10 18:03:41,33.8583,-118.0648,62.67,69,75,1.99
445,Te Anau,NZ,2022-12-10 18:03:42,-45.4167,167.7167,47.82,96,70,1.32
446,Sekoma,BW,2022-12-10 18:03:42,-24.4,23.8833,83.79,33,86,9.6
447,Zhezkazgan,KZ,2022-12-10 18:03:42,47.8043,67.7144,2.98,90,8,4.85
448,Ornskoldsvik,SE,2022-12-10 18:03:43,63.2909,18.7153,20.35,93,100,10.36
449,Bati,ET,2022-12-10 18:03:43,11.1833,40.0167,64.33,45,2,1.45
450,Tezu,IN,2022-12-10 18:03:43,27.9167,96.1667,60.55,46,0,4.23
451,Nedelino,BG,2022-12-10 18:03:44,41.45,25.0833,55.22,96,100,9.55
452,Sawakin,SD,2022-12-10 18:03:44,19.1059,37.3321,79.14,65,43,10.87
453,Oistins,BB,2022-12-10 18:03:45,13.0667,-59.5333,82.51,60,23,4.09
454,Middelburg,ZA,2022-12-10 18:00:58,-25.7751,29.4648,71.24,58,100,2.26
455,Surskoye,RU,2022-12-10 18:03:46,54.4821,46.7214,26.62,90,100,16.31
456,Mizan Teferi,ET,2022-12-10 18:03:46,6.9833,35.5833,61.75,91,27,1.99
457,Bellingham,US,2022-12-10 18:03:46,48.7595,-122.4882,48.09,90,100,6.91
458,Tilichiki,RU,2022-12-10 18:03:47,60.4667,166.1,-8.48,97,60,5.41
459,Teruel,ES,2022-12-10 18:03:47,40.6667,-0.6667,33.94,80,64,9.33
460,Ahipara,NZ,2022-12-10 18:03:48,-35.1667,173.1667,64.18,96,98,6.02
461,Ngerengere,TZ,2022-12-10 18:03:48,-6.75,38.1167,77.58,77,90,5.21
462,North Bend,US,2022-12-10 18:00:15,43.4065,-124.2243,48.07,96,100,14.97
463,Peniche,PT,2022-12-10 18:04:49,39.3558,-9.3811,56.28,86,98,2.62
464,Paamiut,GL,2022-12-10 18:04:49,61.994,-49.6678,22.26,63,5,12.17
465,Thunder Bay,CA,2022-12-10 18:00:14,48.4001,-89.3168,32.23,86,100,10.47
466,Ola,RU,2022-12-10 18:04:50,59.5833,151.2833,-12.39,97,84,6.87
467,Charters Towers,AU,2022-12-10 18:04:50,-20.1,146.2667,76.6,72,61,13.22
468,Tomari,RU,2022-12-10 18:04:50,47.7658,142.0683,22.57,81,100,4.09
469,Touros,BR,2022-12-10 18:04:51,-5.1989,-35.4608,84.97,62,71,13.42
470,Saldanha,ZA,2022-12-10 18:04:51,-33.0117,17.9442,70.95,71,100,5.53
471,Pak Phanang,TH,2022-12-10 18:04:52,8.3511,100.202,77.86,82,97,5.06
472,Merauke,ID,2022-12-10 18:04:52,-8.4667,140.3333,80.73,77,100,3.51
473,Timmins,CA,2022-12-10 18:04:50,48.4669,-81.3331,17.89,57,37,7.76
474,Baryatino,RU,2022-12-10 18:04:52,54.3121,34.521,32.83,99,100,5.39
475,Sabang,ID,2022-12-10 18:04:53,5.8933,95.3214,77.49,83,100,10.29
476,Santa Marta,CO,2022-12-10 18:02:08,11.2408,-74.199,86.9,58,15,8.99
477,Burns Lake,CA,2022-12-10 18:00:09,54.2331,-125.7533,16.77,90,100,3.29
478,Moshenskoye,RU,2022-12-10 18:00:56,58.5102,34.5911,21.96,94,98,6.08
479,Biloela,AU,2022-12-10 18:04:54,-24.4167,150.5,67.14,93,0,4.14
480,Gravina In Puglia,IT,2022-12-10 18:04:14,40.8197,16.4228,53.94,94,100,7.29
481,Kyshtovka,RU,2022-12-10 18:04:54,56.555,76.6271,-15.56,100,65,3.29
482,Sulangan,PH,2022-12-10 18:04:54,11.1373,123.7228,80.8,78,98,10.54
483,Sitka,US,2022-12-10 18:04:55,57.0531,-135.33,30.09,64,0,3.44
484,Imbituba,BR,2022-12-10 18:04:55,-28.24,-48.6703,81.91,70,69,14.36
485,Norman Wells,CA,2022-12-10 18:04:56,65.282,-126.8329,-6.47,97,100,3.02
486,Buarcos,PT,2022-12-10 18:04:56,40.166,-8.8768,53.67,64,81,2.13
487,Callaway,US,2022-12-10 18:04:57,30.153,-85.5699,77.05,76,40,5.01
488,Westport,US,2022-12-10 18:04:12,41.1415,-73.3579,41.16,51,0,6.91
489,Asimion,GR,2022-12-10 18:04:57,35.05,25.1,63.37,85,76,6.06
490,Kirakira,SB,2022-12-10 18:04:58,-10.4544,161.9205,76.57,90,100,4.47
491,Ugoofaaru,MV,2022-12-10 18:04:58,5.6667,73.0,81.21,76,32,15.5
492,Opuwo,NA,2022-12-10 18:04:58,-18.0607,13.84,77.5,26,6,13.69
493,Lavrentiya,RU,2022-12-10 18:04:59,65.5833,-171.0,27.75,96,100,32.12
494,Berlevag,NO,2022-12-10 18:04:59,70.8578,29.0864,22.95,74,40,14.97
495,Kieta,PG,2022-12-10 18:05:00,-6.2167,155.6333,78.39,84,98,1.07
496,Parainen,FI,2022-12-10 18:05:00,60.3067,22.301,27.41,95,94,5.06
497,Taman,RU,2022-12-10 18:05:00,45.2117,36.7161,54.0,85,100,20.85
498,Batagay-Alyta,RU,2022-12-10 18:05:01,67.8006,130.4114,-35.93,88,92,4.45
499,Canton,CN,2022-12-10 18:00:02,23.1167,113.25,55.35,59,1,11.81
500,Malumfashi,NG,2022-12-10 18:05:01,11.7853,7.6218,72.77,16,4,8.93
501,Nome,US,2022-12-10 18:01:47,64.5011,-165.4064,26.17,98,100,27.72
502,Huimilpan,MX,2022-12-10 18:05:03,20.372,-100.2774,61.7,35,1,6.91
503,Baghdad,IQ,2022-12-10 18:05:04,33.3406,44.4009,57.11,77,0,8.05
504,Rocha,UY,2022-12-10 18:05:04,-34.4833,-54.3333,81.39,32,84,13.02
505,Pontianak,ID,2022-12-10 18:05:04,-0.0333,109.3333,75.18,100,75,0.0
506,Yazykovo,RU,2022-12-10 18:05:05,55.2199,56.1353,10.74,81,100,14.92
507,West Bay,KY,2022-12-10 18:05:05,19.3667,-81.4167,84.27,70,40,13.8
508,Zalalovo,HU,2022-12-10 18:06:06,46.848,16.5875,36.37,96,100,17.38
509,Sokoto,NG,2022-12-10 18:06:06,13.0609,5.239,78.04,12,0,9.64
510,Santa Maria,BR,2022-12-10 18:06:07,-29.6842,-53.8069,97.34,22,96,6.93
511,Ouadda,CF,2022-12-10 18:06:07,8.0777,22.4007,74.75,30,51,5.01
512,Aktash,RU,2022-12-10 18:06:07,50.3,87.7333,-17.25,93,70,3.96
513,Sistranda,NO,2022-12-10 18:06:08,63.7256,8.834,19.36,69,5,11.9
514,Badarpur,IN,2022-12-10 18:06:08,24.9,92.6,62.26,71,17,3.11
515,Churhat,IN,2022-12-10 18:06:09,24.428,81.6703,59.77,43,9,0.98
516,Laguna,US,2022-12-10 18:06:09,38.421,-121.4238,52.68,91,100,29.93
517,Tuatapere,NZ,2022-12-10 18:06:09,-46.1333,167.6833,50.31,96,100,3.76
518,Sambava,MG,2022-12-10 18:06:10,-14.2667,50.1667,77.04,82,75,8.32
519,Hervey Bay,AU,2022-12-10 18:04:55,-25.2986,152.8535,72.79,69,93,12.8
520,Rabaul,PG,2022-12-10 18:06:11,-4.1967,152.1721,79.93,77,100,1.05
521,Nhulunbuy,AU,2022-12-10 18:06:12,-12.2333,136.7667,81.21,78,100,5.75
522,Ossora,RU,2022-12-10 18:06:12,59.2353,163.0719,4.46,82,1,7.85
523,Leh,IN,2022-12-10 18:06:13,34.1667,77.5833,20.35,77,94,4.27
524,Vaitape,PF,2022-12-10 18:06:13,-16.5167,-151.75,78.21,74,98,4.56
525,Naryan-Mar,RU,2022-12-10 18:06:14,67.6713,53.087,-3.73,100,98,2.95
526,Lorengau,PG,2022-12-10 18:06:14,-2.0226,147.2712,79.59,82,31,1.9
527,Lagoa Santa,BR,2022-12-10 18:06:16,-19.6272,-43.8897,86.97,48,75,8.05
528,Bibiani,GH,2022-12-10 18:06:16,6.4635,-2.3194,81.5,48,63,1.25
529,Neiafu,TO,2022-12-10 18:06:17,-18.65,-173.9833,77.68,94,75,2.3
530,Douentza,ML,2022-12-10 18:06:17,14.9951,-2.9517,79.63,10,0,6.13
531,Karratha,AU,2022-12-10 18:06:17,-20.7377,116.8463,87.03,28,0,14.97
532,Kavarna,BG,2022-12-10 18:06:18,43.4333,28.3333,56.35,88,100,16.37
533,Sinnamary,GF,2022-12-10 18:06:18,5.3833,-52.95,82.04,73,63,8.03
534,Iwanai,JP,2022-12-10 18:06:19,42.9744,140.5089,32.7,74,97,10.78
535,Jacqueville,CI,2022-12-10 18:06:19,5.2052,-4.4146,81.59,74,17,7.45
536,Navahrudak,BY,2022-12-10 18:06:20,53.6,25.8333,24.01,95,96,8.88
537,Xai-Xai,MZ,2022-12-10 18:06:20,-25.0519,33.6442,76.71,79,0,10.74
538,Xapuri,BR,2022-12-10 18:06:21,-10.6517,-68.5044,90.7,49,100,2.95
539,Mineiros,BR,2022-12-10 18:06:22,-17.5694,-52.5511,82.85,58,99,6.98
540,Tessalit,ML,2022-12-10 18:02:14,20.1986,1.0114,77.18,10,0,6.64
541,Nanchang,CN,2022-12-10 18:06:22,28.6833,115.8833,50.47,71,74,12.03
542,Tepexpan,MX,2022-12-10 18:06:23,18.7458,-97.1544,62.06,41,0,5.93
543,Pisco,PE,2022-12-10 18:06:23,-13.7,-76.2167,73.45,73,0,10.36
544,Ponta Delgada,PT,2022-12-10 18:06:24,37.7333,-25.6667,68.5,82,20,17.27
545,Boca Do Acre,BR,2022-12-10 18:06:24,-8.7522,-67.3978,90.27,54,69,2.55
546,Nador,MA,2022-12-10 18:06:26,35.174,-2.9287,62.85,82,40,5.75
547,Fukue,JP,2022-12-10 18:06:26,32.6881,128.8419,56.91,66,100,16.75
548,Epinal,FR,2022-12-10 18:06:27,48.1833,6.45,30.96,94,64,2.04
549,Linxia,CN,2022-12-10 18:06:28,35.6003,103.2064,25.34,59,74,1.54
550,Ust-Ilimsk,RU,2022-12-10 18:04:53,58.0006,102.6619,8.8,89,100,11.41
551,Nishihara,JP,2022-12-10 18:06:29,26.1842,127.7558,69.08,83,20,10.36
552,Chipata,ZM,2022-12-10 18:06:29,-13.6333,32.65,65.39,89,78,4.14
553,Hami,CN,2022-12-10 18:07:30,42.8,93.45,23.99,41,100,11.12
554,Bismarck,US,2022-12-10 18:05:00,46.8083,-100.7837,27.81,78,0,11.5
555,Soligalich,RU,2022-12-10 18:07:30,59.0778,42.2864,17.08,97,100,4.29
556,Iskateley,RU,2022-12-10 18:07:31,67.6803,53.1512,-4.07,100,99,2.84
557,Andenes,NO,2022-12-10 18:07:31,69.3143,16.1194,24.78,68,100,16.11
558,Prince Rupert,CA,2022-12-10 18:07:31,54.3161,-130.3201,30.67,68,85,6.31
559,Gander,CA,2022-12-10 18:07:32,48.9682,-54.5906,34.12,95,100,10.07
560,Antalaha,MG,2022-12-10 18:07:32,-14.9003,50.2788,74.79,86,11,7.58
561,Staryy Oskol,RU,2022-12-10 18:07:32,51.2967,37.8417,38.95,97,100,17.34
562,Tura,IN,2022-12-10 18:07:33,25.5198,90.2201,59.56,81,47,3.36
563,Male,MV,2022-12-10 18:07:34,4.1748,73.5089,81.23,76,74,19.15
564,Lerwick,GB,2022-12-10 18:05:49,60.1545,-1.1494,35.6,60,100,19.17
565,Pabianice,PL,2022-12-10 18:07:34,51.6645,19.3547,32.23,94,100,9.22
566,Niksic,ME,2022-12-10 18:07:34,42.7731,18.9445,58.68,99,100,8.57
567,Ilulissat,GL,2022-12-10 18:07:35,69.2167,-51.1,28.42,46,75,1.14
568,Kuusamo,FI,2022-12-10 18:07:35,65.9667,29.1833,24.84,86,100,10.36
569,Vicksburg,US,2022-12-10 18:06:35,32.3526,-90.8779,70.03,92,100,9.22
570,Vredendal,ZA,2022-12-10 18:07:36,-31.6683,18.5012,70.0,69,27,8.12
571,Pitanga,BR,2022-12-10 18:07:36,-24.7572,-51.7614,76.01,87,22,5.41
572,Back Mountain,US,2022-12-10 18:07:37,41.3359,-75.9963,44.33,64,0,4.32
573,York,US,2022-12-10 18:05:44,40.1254,-77.0,44.06,47,0,6.91
574,Harper,LR,2022-12-10 18:07:37,4.375,-7.7169,81.14,74,53,8.43
